Country,City,Lat,Lon,Date,Max Temp (F),Humidities %,Cloudinesses,Wind Speed
NZ,Christchurch,-43.5333,172.6333,1614229429,62.64,67,90,8.05
AU,Busselton,-33.65,115.3333,1614229430,79.68,46,4,6.46
RU,Muravlenko,63.7898,74.523,1614229431,-28.03,85,7,6.29
US,Hilo,19.7297,-155.09,1614229219,67.87,78,75,6.91
RU,Provideniya,64.3833,-173.3,1614229434,5.0,72,0,13.42
AZ,Ağdaş,40.65,47.4761,1614229436,24.8,86,90,5.84
US,Jamestown,42.097,-79.2353,1614229374,31.73,80,90,17.27
US,Albany,42.6001,-73.9662,1614229242,41.94,56,90,6.91
MV,Malé,4.1748,73.5089,1614229353,86.0,74,75,12.66
GL,Ilulissat,69.2167,-51.1,1614229441,8.6,52,0,2.59
NZ,Mataura,-46.1927,168.8643,1614229442,57.99,71,79,7.0
CD,Basoko,1.2391,23.616,1614229444,71.17,81,48,3.11
JP,Shimoda,34.6667,138.95,1614229446,45.82,40,40,13.8
PF,Rikitea,-23.1203,-134.9692,1614229447,79.2,79,100,24.38
TZ,Mto wa Mbu,-3.35,35.85,1614229256,70.56,71,95,0.58
US,Broome,42.2506,-75.833,1614229451,40.03,60,75,24.16
TC,Cockburn Town,21.4612,-71.1419,1614229452,76.84,76,0,21.21
US,South Lake Tahoe,38.9332,-119.9844,1614229454,26.38,39,1,8.05
TO,Vaini,-21.2,-175.2,1614229455,80.6,74,75,9.22
PH,Maitum,6.0392,124.4986,1614229456,89.6,55,40,8.05
JP,Hasaki,35.7333,140.8333,1614229458,52.63,28,75,9.22
US,Grafton,42.207,-71.6856,1614229459,42.85,61,90,20.71
CL,Punta Arenas,-53.15,-70.9167,1614229460,49.53,81,92,15.5
ZA,Cape Town,-33.9258,18.4232,1614229238,65.46,72,0,13.8
SA,Faya,18.3851,42.4509,1614229463,56.25,88,40,12.66
CA,La Ronge,55.1001,-105.2842,1614229465,8.6,78,93,6.91
CA,Yellowknife,62.456,-114.3525,1614229467,-9.56,84,90,4.61
NA,Lüderitz,-26.6481,15.1594,1614229468,64.13,70,0,17.11
NZ,Kaitangata,-46.2817,169.8464,1614229470,57.99,67,6,11.01
CO,Puerto Colombia,10.9878,-74.9547,1614229471,80.6,78,0,13.8
RU,Srednekolymsk,67.45,153.6833,1614229472,-20.52,86,100,6.55
MY,George Town,5.4112,100.3354,1614229226,86.54,62,20,10.36
KI,Butaritari,3.0707,172.7902,1614229475,81.7,80,47,18.99
RU,Chara,56.9064,118.2631,1614229476,-6.56,79,87,1.83
IN,Satna,24.5833,80.8333,1614229477,89.96,12,0,7.45
US,Lompoc,34.6391,-120.4579,1614229479,51.55,81,1,3.44
CN,Kumul,42.8,93.45,1614229480,54.97,36,10,6.69
IT,Province of Mantua,45.1667,10.7833,1614229481,41.0,70,0,3.44
RU,Saskylakh,71.9167,114.0833,1614229482,-29.22,93,0,6.51
CN,Shangqiu,34.45,115.65,1614229485,43.0,84,100,13.11
BR,Chopinzinho,-25.8558,-52.5233,1614229487,63.43,97,0,3.58
US,Saint Paul Harbor,57.79,-152.4072,1614229489,33.28,88,10,9.51
ZA,Port Alfred,-33.5906,26.891,1614229490,66.0,96,78,7.43
AU,Carnarvon,-24.8667,113.6333,1614229492,87.8,66,0,19.57
CN,Linxia Chengguanzhen,35.6003,103.2064,1614229493,40.12,65,95,3.4
HK,Hong Kong,22.2855,114.1577,1614229255,68.59,80,92,5.01
RU,Petropavlovsk-Kamchatskiy,53.0452,158.6483,1614229372,24.8,50,75,2.24
CU,Guantánamo,20.1444,-75.2092,1614229499,73.4,73,20,6.91
ZA,Bredasdorp,-34.5322,20.0403,1614229500,64.4,77,48,3.44
RU,Tsimmerbude,54.675,20.1347,1614229501,46.4,87,0,11.18
TD,Adré,13.4667,22.2,1614229503,58.59,32,15,20.18
LV,Liepāja,56.5419,21.0367,1614229505,41.0,93,90,9.22
IN,Puri,19.8,85.85,1614229506,89.6,22,60,4.61
MV,Eydhafushi,5.1033,73.0708,1614229508,82.33,70,100,9.04
US,Barrow,71.2906,-156.7887,1614229510,-29.2,68,1,12.66
RU,Belyy,55.8402,32.9419,1614229514,36.21,99,100,9.82
US,Kapaa,22.0752,-159.319,1614229515,73.18,73,75,17.27
RU,Baykit,61.67,96.37,1614229516,-12.82,90,15,4.43
US,Asheboro,35.7079,-79.8136,1614229518,55.0,36,1,8.05
ID,Bengkulu,-3.8004,102.2655,1614229519,86.25,61,95,13.71
NU,Alofi,-19.0595,-169.9187,1614229520,78.8,89,90,6.91
UY,Rocha,-34.4833,-54.3333,1614229522,60.06,89,0,4.32
CN,Nanning,22.8167,108.3167,1614229523,71.6,83,90,4.47
AU,Hobart,-42.8794,147.3294,1614229525,62.89,36,20,19.57
RU,Abalak,58.1286,68.5944,1614229526,-20.34,93,53,7.83
NO,Kjøllefjord,70.9457,27.3465,1614229527,33.8,86,75,23.02
PY,Ygatimi,-24.0833,-55.5,1614229529,72.16,95,21,2.04
CL,Lebu,-37.6167,-73.65,1614229531,57.11,91,3,11.36
CA,Bonavista,48.6499,-53.1147,1614229533,28.42,93,100,8.05
MZ,Inhambane,-23.865,35.3833,1614229534,71.29,94,20,4.56
PE,Pisco,-13.7,-76.2167,1614229535,70.5,73,0,3.44
LR,Robertsport,6.7533,-11.3686,1614229537,79.29,85,85,7.36
ET,Ginir,7.1333,40.7,1614229538,64.67,38,0,2.89
PF,Atuona,-9.8,-139.0333,1614229539,79.57,76,2,9.55
PH,Dingle,10.9995,122.6711,1614229541,86.29,59,50,9.31
EG,Ţahţā,26.7693,31.5021,1614229542,46.4,87,0,5.75
RU,Tarko-Sale,64.9225,77.785,1614229544,-28.05,84,6,4.92
EC,Puerto Ayora,-0.7393,-90.3518,1614229415,79.0,91,83,3.0
PG,Kieta,-6.2167,155.6333,1614229546,78.6,83,99,4.9
RU,Cherskiy,68.75,161.3,1614229548,-23.84,86,100,3.85
TR,Kulu,39.0951,33.0799,1614229549,31.53,90,62,10.02
IT,Laas,46.6166,10.7002,1614229550,35.02,86,0,6.91
CD,Ilebo,-4.3167,20.5833,1614229552,68.79,95,61,2.01
RU,Khatanga,71.9667,102.5,1614229554,-19.88,87,83,8.05
NZ,Bluff,-46.6,168.3333,1614229555,57.99,71,5,7.0
US,Laguna,38.421,-121.4238,1614229557,54.16,24,1,20.71
RU,Nagornyy,52.7959,83.5498,1614229558,-2.2,55,0,15.66
IT,Porto Empedocle,37.2934,13.5264,1614229559,47.1,87,0,5.17
CA,Saint-Prosper,46.2117,-70.4811,1614229561,30.2,100,100,2.3
GL,Qaanaaq,77.484,-69.3632,1614229562,13.19,82,100,7.81
US,Yucca Valley,34.1142,-116.4322,1614229374,54.72,31,0,3.0
US,San Patricio,28.017,-97.5169,1614229565,69.13,94,90,10.36
CN,Beibei,29.8256,106.4339,1614229515,59.52,82,40,8.95
CN,Kashgar,39.4547,75.9797,1614229567,42.8,52,90,6.71
RU,Yagodnoye,62.55,149.6667,1614229569,-14.89,81,0,2.35
GL,Upernavik,72.7868,-56.1549,1614229570,8.51,78,60,4.59
BR,Belmonte,-15.8631,-38.8828,1614229571,75.2,88,40,2.3
SJ,Longyearbyen,78.2186,15.6401,1614229573,32.0,80,40,11.5
NZ,Tuatapere,-46.1333,167.6833,1614229575,57.99,71,54,7.0
US,Saint George,37.1041,-113.5841,1614229558,44.92,31,1,9.22
BR,Acaraú,-2.8856,-40.12,1614229579,77.56,87,85,7.74
BR,Vila Velha,-20.3297,-40.2925,1614229341,77.86,83,75,5.75
IS,Husavik,66.0449,-17.3389,1614229581,32.0,100,90,4.61
TL,Airai,-8.9266,125.4092,1614229583,63.41,100,94,3.11
RU,Tiksi,71.6872,128.8694,1614229584,-19.89,84,100,3.58
PG,Kavieng,-2.5744,150.7967,1614229585,83.59,75,99,13.58
PT,Ribeira Grande,38.5167,-28.7,1614229587,55.49,67,39,20.92
TZ,Lugoba,-6.45,38.3333,1614229321,74.8,93,100,1.52
MX,Ixtapa,20.7,-105.2,1614229589,71.29,88,90,2.39
BR,São João da Barra,-21.6403,-41.0511,1614229591,74.37,92,31,4.72
AU,Kiama,-34.6833,150.8667,1614229592,75.99,71,68,3.0
IQ,Hīt,33.6416,42.8251,1614229594,51.51,47,0,9.69
SY,Abu Samrah,35.3029,37.1841,1614229595,45.77,63,0,1.83
RU,Onega,63.9061,38.1404,1614229597,8.04,94,100,8.03
ML,Taoudenni,22.6783,-3.9836,1614229598,56.46,37,0,8.37
CN,Babu,24.4167,111.5167,1614229515,69.76,76,98,4.47
SA,Buraidah,26.326,43.975,1614229535,48.2,100,0,6.91
GW,Bubaque,11.2833,-15.8333,1614229604,76.71,65,42,10.22
BR,Castro,-24.7911,-50.0119,1614229605,60.89,97,27,3.78
RU,Nikolskoye,59.7035,30.7861,1614229606,34.5,93,90,13.42
GA,Omboué,-1.5746,9.2618,1614229608,78.46,84,100,4.83
AR,Ushuaia,-54.8,-68.3,1614229609,42.8,81,75,23.02
US,Portland,45.5234,-122.6762,1614228894,37.36,75,1,2.08
PT,Praia da Vitória,38.7333,-27.0667,1614229612,51.71,87,40,14.99
ZA,Hermanus,-34.4187,19.2345,1614229613,61.0,93,19,7.76
SA,Najrān,17.4924,44.1277,1614229615,73.4,49,0,3.31
CA,Clyde River,70.4692,-68.5914,1614229616,3.2,85,75,2.3
JP,Naze,28.3667,129.4833,1614229618,73.4,60,40,14.97
AU,Moree,-29.4667,149.85,1614229619,68.0,94,75,19.57
NZ,Kaeo,-35.1,173.7833,1614229326,75.0,60,77,8.01
RO,Oşeşti,46.7667,27.4667,1614229622,38.5,100,100,2.3
MU,Grand Baie,-20.0182,57.5802,1614229623,82.99,68,0,4.0
TZ,Dunda,-8.1167,34.25,1614229625,65.43,91,93,0.69
CA,Torbay,47.6666,-52.7314,1614229399,30.56,86,90,24.16
GE,Khani,41.9563,42.9566,1614229627,35.6,69,90,13.8
IS,Hofn,64.2539,-15.2082,1614229629,37.74,75,8,12.57
IR,Birjand,32.8663,59.2211,1614229630,46.4,57,90,11.5
BR,Aripuanã,-9.1667,-60.6333,1614229632,73.53,95,100,0.87
RU,Tilichiki,60.4667,166.1,1614229633,-15.38,89,0,9.89
ZA,Pampierstad,-27.7832,24.6877,1614229634,64.42,85,0,7.63
TD,Biltine,14.5333,20.9167,1614229636,63.28,27,26,18.1
CA,Thompson,55.7435,-97.8558,1614229453,-14.8,76,20,1.16
GB,Clevedon,51.4406,-2.8575,1614229639,46.76,93,99,4.0
ID,Ternate,0.8,127.4,1614229640,84.34,70,4,9.28
GF,Sinnamary,5.3833,-52.95,1614229643,76.8,84,53,14.9
CA,Matagami,49.7502,-77.6328,1614229645,-13.31,90,83,6.73
SE,Luleå,65.5842,22.1547,1614229646,30.2,93,0,4.61
NO,Beisfjord,68.3751,17.5988,1614229647,44.6,81,90,17.27
RU,Lavrentiya,65.5833,-171.0,1614229649,-15.65,90,72,10.09
RU,Magistral'nyy,56.1725,107.4458,1614229650,0.9,88,99,2.75
US,Sitka,57.0531,-135.33,1614229652,35.6,80,90,20.71
CD,Likasi,-10.9814,26.7333,1614229653,62.11,97,100,1.61
RU,Pevek,69.7008,170.3133,1614229654,-23.12,88,100,2.91
ID,Sabang,5.8933,95.3214,1614229656,81.21,75,47,8.99
CA,Marystown,47.1666,-55.1483,1614229566,30.52,93,41,18.66
RU,Aykhal,66.0,111.5,1614229659,-23.19,82,0,6.6
MG,Manjakandriana,-18.9167,47.8,1614229661,66.2,88,75,4.61
US,Lufkin,31.3382,-94.7291,1614229479,61.18,77,40,4.38
NZ,Hokitika,-42.7167,170.9667,1614229663,64.99,80,98,3.89
RU,Dikson,73.5069,80.5464,1614229665,-16.76,89,97,12.44
ZA,Port Elizabeth,-33.918,25.5701,1614229532,64.4,100,40,6.91
SA,Sakakah,29.9697,40.2064,1614229668,41.0,87,0,8.05
SS,Tonj,7.2737,28.6822,1614229669,68.92,22,100,4.43
MU,Grand Gaube,-20.0064,57.6608,1614229670,82.99,68,1,4.0
BR,Amarante,-6.2411,-42.8547,1614229672,73.27,94,91,3.0
AU,New Norfolk,-42.7826,147.0587,1614229673,59.13,53,75,4.0
CN,Tahe,52.3333,124.7333,1614229674,4.91,84,100,4.59
RU,Dudinka,69.4058,86.1778,1614229676,-31.79,83,31,4.09
AR,Rawson,-43.3002,-65.1023,1614229677,64.85,54,0,2.66
MU,Mahébourg,-20.4081,57.7,1614229524,77.0,94,40,6.91
SA,Riyadh,24.6877,46.7219,1614229602,55.4,67,40,14.97
MX,Puerto Madero,14.7208,-92.4215,1614229681,79.0,72,1,6.33
CA,Pangnirtung,66.1451,-65.7125,1614229683,11.05,91,98,2.48
UY,Chui,-33.6971,-53.4616,1614229685,63.88,89,0,1.68
BB,Bathsheba,13.2167,-59.5167,1614229686,75.2,64,75,23.02
PG,Port Moresby,-9.4431,147.1797,1614229687,87.8,62,40,24.16
BR,Carutapera,-1.195,-46.02,1614229689,77.02,87,46,6.53
RU,Okha,53.5739,142.9478,1614229690,7.56,93,100,12.88
RU,Kodino,63.7198,39.6447,1614229692,7.25,95,100,6.04
MX,La Huacana,18.9667,-101.8167,1614229693,57.0,67,0,3.71
IN,Nāgod,24.5667,80.6,1614229695,88.5,13,0,8.88
CA,Tuktoyaktuk,69.4541,-133.0374,1614229696,-40.0,67,1,6.91
ES,Calvià,39.5657,2.5062,1614229699,46.56,93,20,3.44
IN,Kharagpur,22.3333,87.3333,1614229701,93.15,16,0,4.14
GN,Labé,11.3182,-12.2833,1614229702,62.76,28,0,2.77
MV,Kudahuvadhoo,2.6708,72.8944,1614229704,81.81,79,75,12.24
RU,Aleksandrov Gay,50.147,48.5704,1614229705,-5.51,88,89,4.25
AR,Mar del Plata,-38.0023,-57.5575,1614229706,61.7,75,0,13.73
CD,Lusambo,-4.9667,23.45,1614229708,69.12,93,39,1.16
MY,Kuala Terengganu,5.3302,103.1408,1614229709,84.11,70,20,8.05
MX,Rosarito,32.3333,-117.0333,1614229711,54.16,82,1,4.05
US,Atchison,39.563,-95.1216,1614229713,27.3,93,1,4.29
AU,Mount Gambier,-37.8333,140.7667,1614229715,62.6,77,90,17.27
MG,Miandrivazo,-19.5167,45.4667,1614229716,78.08,83,86,0.2
ML,Tessalit,20.1986,1.0114,1614229592,52.86,42,0,9.19
CK,Avarua,-21.2078,-159.775,1614229719,80.6,83,40,9.22
RU,Pervoye Maya,56.164,44.7196,1614229721,1.2,78,90,6.71
FR,Dunkirk,51.05,2.3667,1614229722,49.3,87,100,10.89
RU,Iskateley,67.6803,53.1512,1614229723,3.0,93,100,14.2
AR,Tres Arroyos,-38.3739,-60.2798,1614229725,66.0,33,0,9.44
AR,Mercedes,-34.6515,-59.4307,1614229726,66.52,67,0,4.99
BR,Cidreira,-30.1811,-50.2056,1614229727,72.0,75,0,8.72
VN,Tuy Hoa,13.0833,109.3,1614229729,78.98,66,44,6.46
SD,Sennar,13.5691,33.5672,1614229730,62.89,27,0,17.34
RU,Chokurdakh,70.6333,147.9167,1614229731,-19.98,97,100,5.35
MX,Cabo San Lucas,22.8909,-109.9124,1614229733,66.99,58,100,10.4
US,Fortuna,40.5982,-124.1573,1614229736,40.53,93,75,4.54
NC,Moindou,-21.6924,165.677,1614229737,82.4,78,75,6.91
VN,Quang Ngai,15.1167,108.8,1614229739,80.17,65,62,7.0
RU,Chumikan,54.7183,135.315,1614229740,1.31,86,93,14.94
US,Russell,32.3502,-85.1999,1614229741,49.87,81,1,3.44
GB,Weston-super-Mare,51.346,-2.9766,1614229632,46.53,95,99,1.01
CN,Changqing,36.5575,116.7272,1614229744,42.01,78,99,11.07
MG,Anjozorobe,-18.4,47.8667,1614229745,66.2,88,75,4.61
BR,Santa Rita,-7.1139,-34.9781,1614229746,78.8,94,75,3.44
US,Brigantine,39.4101,-74.3646,1614229748,49.75,54,1,8.05
LK,Hambantota,6.1241,81.1185,1614229749,86.0,70,0,6.91
US,Fairbanks,64.8378,-147.7164,1614229591,11.86,85,75,4.74
PT,Lata,40.1629,-8.3327,1614229752,52.68,97,100,2.55
RU,Churapcha,62.0025,132.4325,1614229753,-14.46,84,66,2.3
LR,Buchanan,5.8808,-10.0467,1614229755,77.65,86,19,4.76
IN,Tura,25.5198,90.2201,1614229756,82.4,25,0,5.73
MG,Sambava,-14.2667,50.1667,1614229757,78.51,83,91,4.9
IN,Port Blair,11.6667,92.75,1614229759,82.4,83,40,2.3
AU,Port Macquarie,-31.4333,152.9167,1614229520,80.11,69,70,10.36
CN,Dali,25.7,100.1833,1614229762,62.31,37,7,7.25
RU,Verkhnevilyuysk,63.4453,120.3167,1614229763,-17.5,86,96,3.2
US,Key West,24.5557,-81.7826,1614229764,72.66,91,0,3.0
GB,Stornoway,58.2093,-6.3865,1614229766,45.18,81,75,13.8
CM,Batouri,4.4333,14.3667,1614229767,61.84,40,13,2.75
US,Meadow Lake,34.8014,-106.5436,1614229768,44.85,33,20,6.91
AU,Yulara,-25.2406,130.9889,1614229770,89.6,12,0,10.36
KZ,Beyneu,45.3167,55.2,1614229772,-0.26,88,81,12.71
GL,Qaqortoq,60.7167,-46.0333,1614229773,19.4,58,9,2.3
CA,Inuvik,68.3499,-133.7218,1614229774,-31.88,68,0,8.05
MX,Calderitas,18.55,-88.25,1614229776,75.56,82,0,9.64
LK,Badulla,6.9895,81.0557,1614229777,79.05,56,89,4.12
NO,Skjervøy,70.0311,20.9714,1614229779,39.2,70,75,12.66
CA,Iqaluit,63.7506,-68.5145,1614229780,-7.6,71,75,26.46
NZ,Ahipara,-35.1667,173.1667,1614229782,70.93,66,63,4.85
BR,Caravelas,-17.7125,-39.2481,1614229783,75.7,87,0,5.95
CN,Jijiang,29.2906,106.2542,1614229785,59.63,82,40,8.95
BR,Charqueada,-22.5097,-47.7781,1614229786,71.01,84,99,1.99
SA,Umluj,25.0213,37.2685,1614229788,65.86,43,0,17.11
AU,Ballina,-28.8667,153.5667,1614229789,80.56,74,75,16.11
RU,Leningradskiy,69.3833,178.4167,1614229791,-18.69,86,100,8.32
LY,Bani Walid,31.7566,13.9942,1614229792,49.39,91,100,5.68
CN,Huilong,31.8111,121.655,1614229795,62.01,82,100,3.0
IS,Olafsvik,64.8945,-23.7142,1614229796,35.8,84,93,11.81
VN,Vung Tau,10.346,107.0843,1614229798,78.51,73,28,7.11
DE,Walsrode,52.8667,9.6,1614229799,42.96,100,0,1.14
CN,Yakeshi,49.2833,120.7333,1614229801,6.06,92,98,7.18
CN,Beihai,21.4833,109.1,1614229803,72.57,82,69,13.2
BR,Arraial do Cabo,-22.9661,-42.0278,1614229804,73.4,94,0,3.44
ES,Los Llanos de Aridane,28.6585,-17.9182,1614229806,60.4,94,75,18.41
IN,Māngrol,21.1167,70.1167,1614229807,79.32,53,0,9.66
RU,Svetlaya,46.5389,138.3297,1614229809,16.77,84,3,4.23
RU,Vanavara,60.34,102.2797,1614229810,-9.94,86,4,4.97
RU,Tazovsky,67.4667,78.7,1614229812,-22.32,87,99,2.82
BF,Dano,11.15,-3.0667,1614229813,68.68,21,34,6.2
RU,Kondinskoye,59.6481,67.41,1614229814,-22.49,86,60,7.99
PL,Kalisz,51.7611,18.091,1614229816,44.01,78,0,5.48
MW,Chikwawa,-16.0335,34.8009,1614229817,75.29,87,48,0.25
US,Price,39.5994,-110.8107,1614229819,26.6,43,1,9.22
GL,Aasiaat,68.7098,-52.8699,1614229821,2.01,62,0,7.2
AR,General Roca,-39.0333,-67.5833,1614229822,60.8,82,0,6.6
MY,Bintulu,3.1667,113.0333,1614229824,86.0,70,40,5.75
RU,Insar,53.8653,44.3738,1614229825,1.24,93,100,14.61
LR,Harper,4.375,-7.7169,1614229828,77.68,87,3,5.93
TR,Çumra,37.5732,32.7745,1614229829,33.8,69,40,8.05
RU,Bilibino,68.0546,166.4372,1614229831,-26.32,83,49,1.28
BF,Solenzo,12.1833,-4.0833,1614229832,66.92,20,6,8.79
BR,Rio Pomba,-21.2747,-43.1792,1614229833,64.99,92,31,1.01
MU,Souillac,-20.5167,57.5167,1614229835,78.8,83,40,9.22
AU,Port Lincoln,-34.7333,135.8667,1614229836,66.02,58,82,13.4
JP,Katsuura,35.1333,140.3,1614229837,48.07,34,20,3.44
PK,Dalbandin,28.8947,64.4101,1614229839,70.83,22,0,9.8
OM,Sur,22.5667,59.5289,1614229840,83.8,38,0,2.37
ZA,Port Shepstone,-30.7414,30.455,1614229841,71.51,87,99,3.27
RE,Saint-Philippe,-21.3585,55.7679,1614229843,79.74,51,0,5.75
AU,Geraldton,-28.7667,114.6,1614229845,80.6,61,0,10.36
HR,Omiš,43.4447,16.6886,1614229846,46.4,87,0,1.14
TR,Çine,37.6117,28.0614,1614229848,41.0,75,2,3.44
ID,Meulaboh,4.1363,96.1285,1614229850,86.7,60,35,6.11
RU,Batagay-Alyta,67.8006,130.4114,1614229851,-13.5,86,100,2.35
AR,Río Gallegos,-51.6226,-69.2181,1614229787,51.8,66,0,17.27
OM,Salalah,17.0151,54.0924,1614229856,77.0,57,0,3.44
CA,Norman Wells,65.282,-126.8329,1614229858,-5.8,77,90,3.44
RU,Yar-Sale,66.8333,70.8333,1614229860,-8.48,90,92,2.35
ZA,Richards Bay,-28.783,32.0377,1614229862,73.4,90,98,5.66
US,Kingman,35.1894,-114.053,1614229864,49.08,16,1,16.11
ES,Aras,42.5617,-2.356,1614229865,47.71,93,90,10.36
US,Makakilo City,21.3469,-158.0858,1614229867,74.8,60,1,8.05
RU,Ostrovnoy,68.0531,39.5131,1614229868,7.38,89,100,18.41
BO,La Santisima Trinidad,-14.8333,-64.9,1614229870,74.55,94,100,3.83
RU,Okhotsk,59.3833,143.3,1614229872,3.81,87,72,7.67
BB,Oistins,13.0667,-59.5333,1614229580,75.2,64,75,23.02
NO,Mehamn,71.0357,27.8492,1614229874,33.8,86,75,23.02
CV,São Filipe,14.8961,-24.4956,1614229876,71.15,70,0,9.78
CA,Smithers,54.7804,-127.1743,1614229877,26.6,93,90,5.75
PH,Marawi,7.9986,124.2928,1614229878,82.99,81,92,8.01
MX,Santa María del Río,21.8,-100.75,1614229880,64.4,34,20,8.05
AU,Bongaree,-27.0797,153.1586,1614229881,84.06,42,19,4.0
BO,Chimoré,-16.9833,-65.1333,1614229883,74.19,90,99,2.33
AU,Byron Bay,-28.65,153.6167,1614229885,79.86,74,75,16.11
AU,Flinders,-34.5833,150.8552,1614229887,77.0,65,40,9.22
US,Bethel,41.3712,-73.414,1614229888,44.1,61,90,8.05
MR,Nouadhibou,20.931,-17.0347,1614229889,62.6,77,0,8.05
ZA,Kruisfontein,-34.0033,24.7314,1614229891,63.0,93,97,3.18
AU,Esperance,-33.8667,121.9,1614229892,80.6,39,0,14.97
ML,Kangaba,11.9333,-8.4167,1614229637,69.98,13,0,4.7
RU,Togur,58.3631,82.8265,1614229896,-5.85,90,100,2.35
NG,Lafia,8.4833,8.5167,1614229864,72.52,24,46,1.63
JP,Itoman,26.1247,127.6694,1614229898,74.59,69,75,20.71
RU,Tyrma,50.0833,132.1667,1614229900,5.65,85,84,3.76
RE,Saint-Pierre,-21.3393,55.4781,1614229901,79.84,51,0,5.75
LK,Matara,5.9485,80.5353,1614229902,87.04,60,50,4.7
LY,Darnah,32.767,22.6367,1614229903,57.97,76,0,21.05
GL,Narsaq,60.9167,-46.05,1614229905,19.4,58,2,2.3
NZ,Te Anau,-45.4167,167.7167,1614229906,63.97,51,51,0.63
PF,Faanui,-16.4833,-151.75,1614229908,82.02,73,56,9.84
ZA,Stutterheim,-32.5708,27.424,1614229909,66.2,88,75,6.91
ID,Cirebon,-6.7063,108.557,1614229671,83.03,77,100,19.26
RU,Tara,56.8944,74.371,1614229913,-8.75,89,100,7.05
US,College,64.8569,-147.8028,1614229914,11.86,79,90,3.44
NO,Vardø,70.3705,31.1107,1614229916,24.8,86,75,18.41
VU,Isangel,-19.55,169.2667,1614229918,82.96,71,58,12.64
CA,Fort Nelson,58.8053,-122.7002,1614229919,28.4,50,90,2.98
GL,Nanortalik,60.1432,-45.2371,1614229921,23.52,72,5,7.72
MX,Guerrero Negro,27.9769,-114.0611,1614229922,58.6,77,100,11.7
MU,Bambous Virieux,-20.3428,57.7575,1614229923,80.73,83,40,9.22
ES,Las Palmas,28.4204,-14.0131,1614229814,64.4,77,20,19.57
US,Fairview,40.8126,-73.999,1614229927,46.72,61,90,8.05
PT,Camacha,33.0833,-16.3333,1614229929,57.2,72,20,14.97
MV,Hithadhoo,-0.6,73.0833,1614229930,82.45,73,78,8.1
TM,Gazojak,41.1875,61.4036,1614229931,14.49,45,0,13.76
MX,Coahuayana Viejo,18.7333,-103.6833,1614229934,69.35,72,39,2.28
SE,Kiruna,67.8557,20.2251,1614229936,28.4,93,100,16.11
CA,Assiniboia,49.6334,-105.9845,1614229938,15.8,86,40,12.66
RU,Kuvshinovo,57.0295,34.1725,1614229940,37.24,98,100,10.2
US,Fergus Falls,46.283,-96.0776,1614229867,26.6,93,90,14.97
NO,Sørland,67.667,12.6934,1614229943,43.21,91,99,22.64
IS,Vestmannaeyjar,63.4427,-20.2734,1614229944,38.21,75,16,8.48
UZ,Muborak,39.2553,65.1528,1614229946,22.46,58,22,4.29
RU,Kosino,58.4127,51.2782,1614229947,-13.86,89,52,5.21
AU,Karratha,-20.7377,116.8463,1614229949,98.37,34,0,12.21
DK,Tinglev,54.931,9.2524,1614229950,49.71,71,83,13.8
BR,Maragogi,-9.0122,-35.2225,1614229881,77.61,83,81,6.17
GB,Herne Bay,51.373,1.1286,1614229953,51.3,83,99,1.01
RU,Kudymkar,59.0173,54.656,1614229954,-14.58,92,0,2.82
PT,Lagoa,39.05,-27.9833,1614229956,54.63,67,100,20.07
PE,Hualmay,-11.0964,-77.6139,1614229957,70.66,76,38,4.81
AU,Alice Springs,-23.7,133.8833,1614229938,86.56,10,0,14.97
GL,Tasiilaq,65.6145,-37.6368,1614229888,28.4,69,90,5.75
VU,Sola,-13.8833,167.55,1614229963,82.99,80,100,12.95
FO,Klaksvík,62.2266,-6.589,1614229965,44.6,100,75,10.36
NC,Poum,-20.2333,164.0167,1614229966,81.77,72,54,5.73
ZA,Saldanha,-33.0117,17.9442,1614229968,60.8,82,0,10.36
US,Key Largo,25.0865,-80.4473,1614229792,72.0,92,0,9.55
US,‘Āhuimanu,21.4447,-157.8378,1614229971,74.32,60,75,19.57
CN,Tongchuanshi,35.0806,109.0897,1614229972,35.26,94,100,1.1
TZ,Kasamwa,-2.85,32.4333,1614229975,63.99,92,100,3.85
US,Boulder,40.0833,-105.3505,1614229599,22.55,100,90,4.61
SE,Skellefteå,64.7507,20.9528,1614229978,32.0,93,0,6.91
ID,Gondanglegi,-7.7479,112.0132,1614229980,82.83,81,92,11.23
PT,Ponta do Sol,32.6667,-17.1,1614229981,51.24,56,16,3.0
PH,Pandan,14.0453,124.1694,1614229983,84.29,62,86,5.5
SB,Auki,-8.7676,160.7034,1614229984,81.25,86,100,11.99
GB,Warrington,53.3925,-2.5802,1614229986,44.76,87,100,5.75
US,Brandon,27.9378,-82.2859,1614229987,54.88,93,1,4.21
BR,Pontes e Lacerda,-15.2261,-59.3353,1614229988,73.78,90,92,1.7
MX,San Quintín,30.4833,-115.95,1614229990,57.15,81,48,3.71
CN,Altay,47.8667,88.1167,1614229991,27.52,95,100,7.16
GH,Prestea,5.4327,-2.1428,1614229992,74.48,94,32,3.65
BR,Amapá,1.0,-52.0,1614229994,71.62,98,89,2.17
TR,İdil,37.3411,41.8895,1614229995,41.0,60,0,8.05
RU,Vilyuysk,63.7553,121.6247,1614229997,-19.21,86,72,3.4
ID,Atambua,-9.1061,124.8925,1614229998,75.38,88,100,3.53
ID,Biak,-0.9131,122.8766,1614229973,83.89,68,100,2.59
GB,Margate,51.3813,1.3862,1614229911,49.87,72,88,1.99
RU,Berdigestyakh,62.0989,126.6992,1614230002,-10.53,87,84,1.45
CN,Ürümqi,43.801,87.6005,1614230003,30.2,80,75,4.47
AU,Howard Springs,-12.497,131.047,1614230004,84.2,70,75,5.75
RU,Talnakh,69.4865,88.3972,1614230006,-27.56,82,17,3.62
GL,Nuuk,64.1835,-51.7216,1614229886,19.2,68,20,13.8
PH,Gigmoto,13.7796,124.39,1614229817,84.47,61,43,6.15
TR,Şebinkarahisar,40.2883,38.4236,1614230010,17.38,89,18,4.12
PG,Panguna,-6.3164,155.4848,1614230011,73.02,94,100,2.62
AU,Ulladulla,-35.35,150.4667,1614230013,75.99,65,40,9.22
ZA,East London,-33.0153,27.9116,1614230014,66.2,88,75,6.91
KY,West Bay,19.3667,-81.4167,1614230015,79.0,1,6,10.0
CN,Fuxin,42.0156,121.6589,1614230017,32.27,15,84,5.93
ML,Koutiala,12.3917,-5.4642,1614230018,66.61,20,0,9.24
RU,Kamen'-Rybolov,44.7481,132.0403,1614230020,16.93,93,100,7.54
US,Liberal,37.0431,-100.921,1614230021,33.8,47,1,12.66
ZA,Springbok,-29.6643,17.8865,1614230023,56.75,44,0,2.91
AR,Tandil,-37.3217,-59.1332,1614229755,61.0,71,0,1.01
BR,Ilhabela,-23.7781,-45.3581,1614229740,76.64,87,100,3.02
AU,Rockhampton,-23.3833,150.5,1614230027,89.6,48,40,11.5
MX,Acapulco de Juárez,16.8634,-99.8901,1614230028,76.78,65,55,5.37
AR,Reconquista,-29.15,-59.65,1614230031,70.83,47,0,5.08
BW,Sefophe,-22.1833,27.9667,1614230033,69.8,94,0,4.61
US,Hibbing,47.4272,-92.9377,1614229872,25.72,80,90,12.66
CA,Aklavik,68.2191,-135.0107,1614230038,-31.9,75,1,10.36
CL,Coquimbo,-29.9533,-71.3436,1614229880,59.18,90,14,1.99
BR,Luís Correia,-2.8792,-41.6669,1614230041,76.93,89,59,9.55
ML,Goundam,16.4145,-3.6708,1614230042,64.67,18,0,13.98
NE,Bilma,18.6853,12.9164,1614230043,57.09,33,0,9.62
AR,San Vicente,-26.6167,-54.1333,1614230045,65.41,96,0,2.73
VN,Ha Tinh,18.3333,105.9,1614230001,85.42,52,2,4.36
RU,Vysokaya Gora,55.9128,49.3017,1614230048,-13.0,70,0,8.95
TZ,Songea,-10.6833,35.65,1614230050,68.0,88,75,0.56
RU,Deputatsky,69.3,139.9,1614230052,-25.08,86,28,0.34
US,Avera,33.194,-82.5271,1614230053,52.72,76,1,3.44
CA,Beaupré,47.0443,-70.8953,1614230054,29.71,93,100,1.14
LY,Tūkrah,32.5341,20.5791,1614230056,57.07,75,0,18.34
ES,Alhaurín el Grande,36.643,-4.6873,1614230057,53.78,94,75,3.44
CN,Jining,35.405,116.5814,1614230058,37.29,99,100,9.24
JP,Hirara,24.8,125.2833,1614230060,73.72,78,75,16.11
CN,Jieshi,22.8134,115.8257,1614230061,72.0,74,88,1.01
FR,Arrondissement de Cognac,45.5,-0.25,1614230064,49.68,81,0,8.05
TJ,Ayní,39.3941,68.5377,1614230065,28.96,74,100,9.24
ID,Sorong,-0.8833,131.25,1614230066,83.86,67,4,5.99
RU,De-Kastri,51.4667,140.7833,1614230068,8.24,91,100,9.69
BO,Villazón,-22.0866,-65.5942,1614230069,53.51,66,100,1.66
CA,Moose Factory,51.2585,-80.6094,1614230071,-4.92,71,20,5.75
TH,Bang Sai,14.2124,100.4966,1614230073,92.86,48,20,8.05
US,Westport,41.1415,-73.3579,1614229960,43.92,81,90,9.22
JP,Muroto-misakicho,33.2833,134.15,1614230075,57.2,47,40,9.22
RO,Asău,46.4333,26.4,1614230077,36.75,100,90,2.3
CD,Mangai,-4.05,19.5333,1614230078,68.36,97,48,1.23
RU,Magadan,59.5667,150.8,1614229996,4.35,86,57,6.13
GR,Néa Manoláda,38.05,21.3833,1614230082,47.71,67,0,13.8
RE,Saint-Joseph,-21.3667,55.6167,1614230000,79.83,51,0,5.75
PE,Sechura,-5.5569,-80.8222,1614230085,75.13,73,41,10.16
NC,Vao,-22.6667,167.4833,1614230087,78.49,83,0,18.19
CA,Flin Flon,54.7682,-101.865,1614230088,-3.3,93,74,1.43
SO,Hobyo,5.3505,48.5268,1614230089,78.35,68,78,16.02
CN,Rongcheng,30.634,117.8517,1614230091,51.78,89,100,7.67
BR,Xapuri,-10.6517,-68.5044,1614230092,74.5,89,100,1.79
RU,Klyuchi,52.2667,79.1667,1614230093,2.77,85,46,20.24
CN,Korla,41.7597,86.1469,1614230094,49.71,46,18,2.98
CN,Haimen,23.1935,116.6142,1614230096,69.8,73,75,4.47
GR,Gra Lygia,35.0167,25.6833,1614230098,57.0,62,4,19.53
BI,Bubanza Province,-3.1167,29.4,1614230099,68.41,77,96,1.86
RU,Kuril'sk,45.2333,147.8833,1614230100,19.67,89,91,21.27
BR,São Miguel do Araguaia,-13.275,-50.1628,1614230102,72.43,89,27,1.3
RU,Nikolayevsk-on-Amur,53.1406,140.73,1614230105,7.86,91,100,3.94
PL,Krosno Odrzańskie,52.0549,15.0988,1614230106,44.92,100,0,1.14
DO,Esperanza,19.5847,-70.9849,1614230107,70.0,84,49,4.0
ID,Mataram,-8.5833,116.1167,1614229863,87.8,66,75,14.97
BR,Itarema,-2.9248,-39.9167,1614230110,77.74,86,73,8.19
RU,Ossora,59.2353,163.0719,1614230111,-3.28,88,36,7.0
NE,Arlit,18.7369,7.3853,1614230113,62.92,24,0,10.04
US,Ascension,30.2169,-90.9001,1614230114,62.31,88,75,3.44
PF,Teahupoo,-17.8333,-149.2667,1614230116,82.2,78,75,6.91
US,Wasilla,61.5814,-149.4394,1614230117,23.56,93,90,3.44
AR,Punta Alta,-38.8759,-62.0736,1614230119,74.25,29,0,10.56
US,Homer,59.6425,-151.5483,1614230120,28.45,93,90,7.78
PW,Kloulklubed,7.0419,134.2556,1614230121,82.4,78,90,12.66
US,Weiser,44.251,-116.9693,1614230123,29.03,55,1,3.44
TR,Sinop Province,41.7711,34.8709,1614230124,33.8,86,75,2.3
BR,Santa Vitória do Palmar,-33.5189,-53.3681,1614230126,64.24,89,0,1.21
NA,Eenhana,-17.4667,16.3333,1614230127,71.6,53,100,2.3
VN,Turan,16.0678,108.2208,1614229933,82.4,61,30,6.91
EG,Aswān,24.0934,32.907,1614230129,54.01,42,0,8.9
GR,Embonas,36.2269,27.8564,1614230131,56.23,76,20,9.22
CU,Niquero,20.0431,-77.5828,1614230132,75.38,78,29,9.71
BR,Alenquer,-1.9417,-54.7383,1614230134,80.6,89,75,9.22
DE,Wurzburg,49.7878,9.9361,1614230135,47.82,71,0,5.75
PF,Fare,-16.7,-151.0167,1614230137,82.02,72,37,9.55
CL,Ancud,-41.8697,-73.8203,1614230138,59.0,79,0,4.0
AU,Corowa,-36.0333,146.3833,1614230141,81.0,31,48,3.0
BY,Forsytheganj,52.6333,29.7333,1614230142,37.31,99,100,9.44
IN,Parlākimidi,18.7667,84.0833,1614230144,94.57,16,20,3.67
PE,Pimentel,-6.8367,-79.9342,1614230146,69.01,85,85,4.0
IN,Manavālakurichi,8.1333,77.3,1614230147,87.8,70,20,5.75
US,Rome,43.2128,-75.4557,1614230148,38.86,65,90,23.02
BR,Santa Fé do Sul,-20.2111,-50.9258,1614230150,71.85,85,29,4.97
MG,Ambilobe,-13.2,49.05,1614230151,78.55,84,16,3.36
KE,Lodwar,3.1191,35.5973,1614230152,84.47,35,98,3.89
CN,Wufeng,27.45,104.8333,1614230154,52.95,87,70,6.35
ES,Puerto del Rosario,28.5004,-13.8627,1614230155,64.4,82,40,17.27
RU,Nizhniy Kuranakh,58.8353,125.4869,1614230156,-7.01,90,99,2.17
SL,Bonthe,7.5264,-12.505,1614230158,78.03,87,66,4.09
SB,Honiara,-9.4333,159.95,1614230161,84.67,76,100,7.78
PT,Godim,41.171,-7.803,1614230164,50.0,92,99,3.8
CL,Arica,-18.475,-70.3042,1614230165,65.73,90,17,1.83
RU,Zavodouspenskoye,56.8626,65.0155,1614230166,-14.8,70,61,15.66
US,Eureka,40.8021,-124.1637,1614230168,41.45,91,0,6.2
AU,Kununurra,-15.7667,128.7333,1614229904,91.4,41,40,4.61
DO,Santo Domingo,18.5001,-69.9886,1614230103,73.44,88,20,6.91
GN,Macenta,8.5435,-9.471,1614230172,67.71,92,19,0.92
KR,Seoul,37.5683,126.9778,1614229999,43.39,33,75,2.3
BR,Touros,-5.1989,-35.4608,1614230174,77.0,94,20,6.91
AR,Rafaela,-31.2503,-61.4867,1614230175,71.8,45,0,3.6
DE,Osterburg,52.7833,11.7667,1614230177,45.0,91,0,6.85
IR,Chabahar,25.2919,60.643,1614230178,76.23,67,0,5.77
RU,Kropotkin,45.4375,40.5756,1614230180,15.01,89,29,3.76
PE,San Vicente de Cañete,-13.0751,-76.3835,1614230182,70.56,80,92,2.8
CN,Moba,33.2288,105.0179,1614230183,48.4,51,82,7.27
KZ,Derzhavīnsk,51.1,66.3167,1614230185,-7.87,89,100,14.88
TD,Dourbali,11.8091,15.8632,1614230186,67.15,22,0,12.48
US,Ketchikan,55.3422,-131.6461,1614230138,33.8,100,90,16.11
ES,Muros,42.7762,-9.0603,1614230188,48.0,94,90,1.01
AR,Villa Carlos Paz,-31.4241,-64.4978,1614230190,66.92,94,0,4.61
RU,Egvekinot,66.3167,-179.1667,1614230191,-21.17,85,3,12.53
US,Mayo,38.8876,-76.5119,1614230192,47.07,81,1,14.05
US,Hamilton,39.1834,-84.5333,1614230131,37.53,75,1,8.05
ID,Kendari,-3.945,122.4989,1614230178,86.07,70,60,4.29
PT,Ponta Delgada,37.7333,-25.6667,1614230198,55.4,67,40,9.22
PL,Trzebiatów,54.0615,15.2648,1614230199,46.99,95,6,10.6
RU,Nyurba,63.2842,118.3319,1614230201,-16.1,86,99,3.38
IN,Sirūr,18.8333,74.3833,1614230202,85.57,22,0,9.17
GB,Brae,60.3964,-1.353,1614230204,44.6,76,75,24.16
BR,Santa Helena de Goiás,-17.8136,-50.5969,1614230052,70.83,89,7,3.4
PF,Tiarei,-17.5333,-149.3333,1614230206,82.2,78,75,6.91
RU,Novyy Oskol,50.7631,37.8691,1614230207,21.54,97,100,12.41
US,Pacific Grove,36.6177,-121.9166,1614230209,50.63,35,1,3.44
SO,Bandarbeyla,9.4942,50.8122,1614229988,77.29,65,62,8.93
DZ,Constantine,36.365,6.6147,1614230211,39.2,81,0,1.81
SN,Kolda,12.8833,-14.95,1614230213,62.69,44,0,2.26
AR,Necochea,-38.5473,-58.7368,1614230214,63.0,73,0,3.0
RU,Omsukchan,62.5333,155.8,1614230215,-18.27,84,100,6.62
RU,Goryachegorsk,55.4053,88.9154,1614230217,6.21,77,78,17.36
VG,Road Town,18.4167,-64.6167,1614230218,76.66,83,42,5.01
PG,Lorengau,-2.0226,147.2712,1614230220,83.68,77,99,10.04
RU,Ust'-Koksa,50.2696,85.6108,1614230221,20.07,89,100,15.55
NP,Pokhara,28.2333,83.9833,1614230223,77.47,24,0,6.15
DE,Flensburg,54.7833,9.4333,1614230224,49.69,71,73,13.8
ID,Belawan,3.7755,98.6832,1614230225,84.2,79,75,6.91
LY,Awjilah,29.1081,21.2869,1614230227,50.65,55,0,5.08
PT,Arrifes,37.7667,-25.7,1614230228,55.4,67,40,9.22
EG,Port Said,31.2565,32.2841,1614230229,57.2,94,0,5.75
US,Aurora,39.7294,-104.8319,1614230231,25.38,100,90,13.8
PK,Turbat,26.0023,63.044,1614230232,80.78,30,0,3.47
CA,Port Hardy,50.6996,-127.4199,1614230233,38.5,81,90,8.05
CA,Alberton,46.8168,-64.0654,1614230234,31.96,93,100,11.5
MY,Yong Peng,2.0136,103.0659,1614230056,90.3,48,100,5.35
RU,Khor,47.8861,134.9464,1614230237,1.81,90,17,5.68
JP,Kushima,31.4583,131.2333,1614230238,58.03,87,75,5.75
IR,Sūsangerd,31.5608,48.1831,1614230241,51.8,93,75,4.61
RU,Tokur,53.1333,132.9,1614230242,3.94,90,74,1.39
RU,Bogatyye Saby,56.0102,50.4483,1614230243,-14.33,88,72,7.38
RU,Aniva,46.7144,142.5294,1614230246,19.4,53,40,8.95
AU,Maningrida,-12.0667,134.2667,1614230247,76.95,84,100,4.9
US,Lake Shasta,40.6804,-122.3708,1614230248,45.91,22,1,19.57
KI,Bairiki Village,1.3292,172.9752,1614230250,84.2,74,75,14.97
BR,Dom Pedrito,-30.9828,-54.6731,1614230251,61.68,74,0,5.68
US,Altamont,42.2068,-121.7372,1614230252,27.37,74,1,3.44
ZW,Zvishavane,-20.3267,30.0665,1614230254,64.6,92,15,1.07
MR,Atar,20.5169,-13.0499,1614230255,68.38,23,0,15.46
PE,Huarmey,-10.0681,-78.1522,1614230256,70.54,80,22,7.38
MN,Mandalgovi,45.7625,106.2708,1614230258,37.87,53,0,15.17
KZ,Zhezkazgan,47.8043,67.7144,1614230259,-14.8,70,40,24.61
CN,Fenyi,27.8112,114.6681,1614230228,59.4,95,100,1.74
US,Hackettstown,40.854,-74.8291,1614230262,44.94,53,94,5.75
EG,Sohag,26.557,31.6948,1614230263,48.54,77,0,7.43
AO,Mossamedes,-15.1961,12.1522,1614230039,68.43,79,93,1.86
RU,Naryan-Mar,67.6713,53.087,1614230266,3.0,91,100,15.41
MR,Nouakchott,18.0858,-15.9785,1614230267,64.4,48,0,9.22
CN,Baoding,38.8511,115.4903,1614230269,49.73,39,51,8.16
BF,Manga,11.6636,-1.0731,1614230271,69.62,11,0,7.56
IN,Lingsugūr,16.1667,76.5167,1614230272,87.31,24,5,6.24
BR,Cururupu,-1.8283,-44.8683,1614230274,75.09,92,39,3.4
US,Nome,64.5011,-165.4064,1614230275,8.6,78,90,12.66
US,Kahului,20.8947,-156.47,1614230276,69.49,64,40,20.71
BR,Pitimbu,-7.4706,-34.8086,1614230278,78.8,94,75,3.44
CL,Coyhaique,-45.5752,-72.0662,1614230279,50.67,98,17,3.15
CN,Yunyang,33.4474,112.7142,1614230281,48.0,39,99,15.14
BR,Careiro da Várzea,-3.2003,-59.8119,1614230282,77.05,94,0,1.14
